Address,Type,Total Area,Bathrooms,Bedrooms,Vacancies,Price,Description,Link,Id,Region,latitude,longitude
"Rua Cristiano Viana, Cerqueira César sao paulo",casas,102,2,2,3,4500,Locação Casa Cerqueira César São Paulo,/imovel/aluguel-casa-2-quartos-com-varanda-cerqueira-cesar-centro-sao-paulo-sp-102m2-id-2507834078/,2507834078,centro,-23.5562097,-46.6793043
"Rua das Palmeiras, Jardim Azano I sao paulo",casas,125,2,3,2,1500,Sobrado para venda ou aluguel no Jardim Azano I,/imovel/venda-casa-3-quartos-com-churrasqueira-jardim-azano-i-centro-sao-paulo-sp-125m2-id-2516002848/,2516002848,centro,44.933143,7.540121
"Travessa Vila Nilo, Aclimação sao paulo",casas,80,2,2,0,3500,SÃO PAULO - CASA DE VILA - ACLIMACAO,/imovel/aluguel-casa-2-quartos-com-quintal-aclimacao-centro-sao-paulo-sp-80m2-id-2514580377/,2514580377,centro,-23.5711792,-46.6368186
"Avenida Pedroso da Silveira, Pari sao paulo",casas,118,4,3,1,3600,São Paulo - Casa Padrão - Pari,/imovel/aluguel-casa-3-quartos-mobiliado-pari-centro-sao-paulo-sp-118m2-id-2515918280/,2515918280,centro,-23.5285316,-46.6092168
"Rua José Comparato, Aclimação sao paulo",casas,250,3,3,6,4300,"Sobrado com 3 dormitórios para alugar, 250 m² por R$ 4.300,00/mês - Aclimação - São Paulo/SP",/imovel/aluguel-casa-3-quartos-com-armario-de-cozinha-aclimacao-centro-sao-paulo-sp-250m2-id-2513978775/,2513978775,centro,44.933143,7.540121
Aclimação sao paulo,casas,90,1,2,0,1800,Sao Paulo - Casa Padrão - Aclimação,/imovel/aluguel-casa-2-quartos-aclimacao-centro-sao-paulo-sp-90m2-id-2516115981/,2516115981,centro,-23.5671021,-46.6268011
"Rua Pedro Inácio de Araújo, Vila Sao Silvestre sao paulo",casas,115,2,2,2,2000,SAO PAULO - Casa de Condomínio - Vila São Silvestre,/imovel/aluguel-casa-2-quartos-com-churrasqueira-vila-sao-silvestre-centro-sao-paulo-sp-115m2-id-2245655702/,2245655702,centro,44.933143,7.540121
"Rua Senador Felício dos Santos, Liberdade sao paulo",casas,66,1,2,0,1600,"Casa com 2 dormitórios para alugar, 66 m² por R$ 1.600/mês - Liberdade - São Paulo/SP",/imovel/aluguel-casa-2-quartos-com-lavanderia-coletiva-liberdade-centro-sao-paulo-sp-66m2-id-2515489808/,2515489808,centro,-23.5658015,-46.6344655
Luz sao paulo,casas,70,2,2,0,2500,Casa de 2 dormitórios - 70m² - Luz,/imovel/aluguel-casa-2-quartos-luz-centro-sao-paulo-sp-70m2-id-2514910384/,2514910384,centro,-23.53512225,-46.63539301511077
"Rua Antônio de Andrade, Pari sao paulo",casas,40,1,1,1,1000,Casa para aluguel tem 40 metros quadrados com 1 quarto em Canindé - São Paulo - SP,/imovel/aluguel-casa-1-quarto-com-area-de-servico-pari-centro-sao-paulo-sp-40m2-id-2510811276/,2510811276,centro,-23.5238605,-46.6154395
Aclimação sao paulo,casas,278,4,4,3,3200,"Sobrado com 4 dormitórios para alugar, 278 m² por R$ 3.200,00/mês - Aclimação - São Paulo/SP",/imovel/aluguel-casa-4-quartos-com-ar-condicionado-aclimacao-centro-sao-paulo-sp-278m2-id-2511809085/,2511809085,centro,-23.5671021,-46.6268011
"Avenida Pedroso da Silveira, Pari sao paulo",casas,118,3,2,1,2800,São Paulo - Casa Padrão - Pari,/imovel/aluguel-casa-2-quartos-com-armario-embutido-pari-centro-sao-paulo-sp-118m2-id-2515917876/,2515917876,centro,-23.5285316,-46.6092168
"Rua Vila do Conde, Bom Retiro sao paulo",casas,100,1,2,2,1870,São Paulo - Casa Padrão - Bom Retiro,/imovel/aluguel-casa-2-quartos-com-armario-embutido-bom-retiro-centro-sao-paulo-sp-100m2-id-2513066178/,2513066178,centro,-23.5196876,-46.6503729
Aclimação sao paulo,casas,230,3,3,2,4200,"Sobrado com 3 dormitórios para alugar, 230 m² por R$ 4.200/mês - Aclimação - São Paulo/SP",/imovel/aluguel-casa-3-quartos-com-cozinha-aclimacao-centro-sao-paulo-sp-230m2-id-2509769479/,2509769479,centro,-23.5671021,-46.6268011
"Rua Alagoas, Higienópolis sao paulo",casas,40,1,1,1,2500,"Sobrado com 1 dormitório para alugar, 40 m² por R$ 2.500,00/mês - Higienópolis - São Paulo/SP",/imovel/aluguel-casa-1-quarto-com-piscina-higienopolis-centro-sao-paulo-sp-40m2-id-2513471214/,2513471214,centro,-23.5439399,-46.664048
"Rua Araguaia, Canindé sao paulo",casas,150,1,3,0,2000,"Casa Residencial/Escritório para locação no Canindé, 150m²",/imovel/aluguel-casa-3-quartos-com-area-de-servico-caninde-centro-sao-paulo-sp-150m2-id-2443839836/,2443839836,centro,-23.5259566,-46.6191236
"Rua Saturno, Aclimação sao paulo",casas,120,3,3,2,4000,SãO PAULO - Casa Padrão - Aclimação,/imovel/aluguel-casa-3-quartos-aclimacao-centro-sao-paulo-sp-120m2-id-2515625585/,2515625585,centro,-23.5695593,-46.6335627
"Rua Alabastro, Aclimação sao paulo",casas,160,3,3,1,4100,Sobrado para locação Residencial/Comercial,/imovel/aluguel-casa-3-quartos-aclimacao-centro-sao-paulo-sp-160m2-id-2515853845/,2515853845,centro,-23.5723517,-46.6300881
"Rua Pais de Andrade, Aclimação sao paulo",casas,80,2,2,1,3200,SAO PAULO - CASA DE VILA - ACLIMACAO,/imovel/aluguel-casa-2-quartos-aclimacao-centro-sao-paulo-sp-80m2-id-2516068174/,2516068174,centro,-23.5711912,-46.6294993
"Rua Tupi, Santa Cecília sao paulo",casas,150,2,2,2,5800,SãO PAULO - Casa Padrão - Santa Cecília,/imovel/aluguel-casa-2-quartos-com-quintal-santa-cecilia-centro-sao-paulo-sp-150m2-id-2442134028/,2442134028,centro,-23.5344722,-46.661154
"Alameda Tietê, Cerqueira César sao paulo",casas,200,3,3,1,15000,"Casa para alugar, 200 m² por R$ 15.000,00/mês - Cerqueira Cezar - São Paulo/SP",/imovel/aluguel-casa-3-quartos-cerqueira-cesar-centro-sao-paulo-sp-200m2-id-2503556114/,2503556114,centro,-23.5634772,-46.6640945
"Rua Coronel Diogo, Aclimação sao paulo",casas,110,2,3,0,2500,"Casa Residencial/Comercial com 3 dormitórios/salas para alugar, 110 m² por R$ 2.500/mês - Aclimação",/imovel/aluguel-casa-3-quartos-com-armario-de-cozinha-aclimacao-centro-sao-paulo-sp-110m2-id-2511917592/,2511917592,centro,44.933143,7.540121
"Rua Bela Cintra, Cerqueira César sao paulo",apartamentos,56,2,1,0,5404,Duplex Housi Bela Cintra - 1 dormitório - Jardins,/imovel/aluguel-apartamento-1-quarto-mobiliado-cerqueira-cesar-centro-sao-paulo-sp-56m2-id-2494833624/,2494833624,centro,-23.5572794,-46.6628462
"Rua Piauí, Higienópolis sao paulo",apartamentos,105,1,2,1,3400,"Apartamento com 2 dormitórios, 105 m² - venda por R$ 1.065.000,00 ou aluguel por R$ 3.400,00 - Higie",/imovel/venda-apartamento-2-quartos-higienopolis-centro-sao-paulo-sp-105m2-id-2516372886/,2516372886,centro,-23.5457499,-46.656704
"Rua Augusta, Consolação sao paulo",apartamentos,35,1,1,1,2400,Apartamento com 35m² 1 dormitório (suíte) mobiliado 1 vaga de garagem - Consolação - São Paulo/SP,/imovel/venda-apartamento-1-quarto-mobiliado-consolacao-centro-sao-paulo-sp-35m2-id-2500958843/,2500958843,centro,-23.5570044,-46.6589972
"Rua Bela Cintra, Cerqueira César sao paulo",apartamentos,50,2,2,1,2900,"Imperdível Apto 02 dorms, 01 suíte e 01 vaga 50m² Cerqueira César/Consolação",/imovel/aluguel-apartamento-2-quartos-com-piscina-cerqueira-cesar-centro-sao-paulo-sp-50m2-id-2515395631/,2515395631,centro,-23.5572794,-46.6628462
"Rua Baronesa de Itu, Higienópolis sao paulo",apartamentos,30,1,1,1,2500,Apartamento para aluguel tem 30 metros quadrados com 1 quarto em Indianópolis - São Paulo - SP,/imovel/aluguel-apartamento-1-quarto-mobiliado-higienopolis-centro-sao-paulo-sp-30m2-id-2514944974/,2514944974,centro,44.933143,7.540121
"Rua Dona Antônia de Queirós, Consolação sao paulo",apartamentos,40,1,1,1,2200,"Apartamento com 1 dormitório para alugar, 40 m² por R$ 2.200,00/mês - Consolação - São Paulo/SP",/imovel/aluguel-apartamento-1-quarto-com-piscina-consolacao-centro-sao-paulo-sp-40m2-id-2514095448/,2514095448,centro,-23.5512974,-46.6529327
"Rua Dona Antônia de Queirós, Consolação sao paulo",apartamentos,40,1,1,1,2200,"Apartamento com 1 dormitório para alugar, 40 m² por R$ 2.200,00/mês - Consolação - São Paulo/SP",/imovel/aluguel-apartamento-1-quarto-com-piscina-consolacao-centro-sao-paulo-sp-40m2-id-2514678988/,2514678988,centro,-23.5512974,-46.6529327
"Rua Vinte e Cinco de Janeiro, Luz sao paulo",apartamentos,50,1,2,1,2000,Apartamento para aluguel com 50 metros quadrados com 2 quartos em Luz - São Paulo - São Paulo,/imovel/aluguel-apartamento-2-quartos-com-piscina-luz-centro-sao-paulo-sp-50m2-id-2516210479/,2516210479,centro,-23.5355033,-46.630598
"Rua Major Quedinho, Centro sao paulo",apartamentos,53,2,2,1,3300,Apartamento com 2 dormitórios para locação de 53 m² por R$ 3.300/mês - Bela Vista,/imovel/aluguel-apartamento-2-quartos-mobiliado-centro-centro-sao-paulo-sp-53m2-id-2514103310/,2514103310,centro,-23.5544633,-46.6430898
"Rua Conselheiro Furtado, Centro sao paulo",apartamentos,55,1,2,1,1700,Apartamento para aluguel com 55 metros quadrados com 2 quartos em Liberdade - São Paulo - SP,/imovel/aluguel-apartamento-2-quartos-com-churrasqueira-centro-centro-sao-paulo-sp-55m2-id-2513464796/,2513464796,centro,-23.5625907,-46.632607
Consolação sao paulo,apartamentos,44,1,1,1,1850,São Paulo - Apartamento Padrão - Consolação,/imovel/aluguel-apartamento-1-quarto-consolacao-centro-sao-paulo-sp-44m2-id-2516267505/,2516267505,centro,-23.557818,-46.6605373
"Rua Caio Prado, Consolação sao paulo",apartamentos,56,1,2,1,3800,Apartamento Mobiliado para alugar | Cadoro Residências | 2 dormitórios | 1 vaga de garagem,/imovel/aluguel-apartamento-2-quartos-mobiliado-consolacao-centro-sao-paulo-sp-56m2-id-2516166508/,2516166508,centro,-23.5505115,-46.6480605
"Rua Maria Antônia, Vila Buarque sao paulo",apartamentos,54,1,1,0,1500,Apartamento na quadra da Universidade Mackenzie e do metrô,/imovel/aluguel-apartamento-1-quarto-vila-buarque-centro-sao-paulo-sp-54m2-id-2515886444/,2515886444,centro,44.933143,7.540121
"Alameda Olga, Santa Cecília sao paulo",apartamentos,51,1,1,1,3000,Apartamento para aluguel com 51 metros quadrados com 1 quarto em Barra Funda - São Paulo - SP,/imovel/aluguel-apartamento-1-quarto-mobiliado-santa-cecilia-centro-sao-paulo-sp-51m2-id-2514447892/,2514447892,centro,44.933143,7.540121
"Rua Doutor Albuquerque Lins, Santa Cecília sao paulo",apartamentos,120,2,3,1,4000,Apartamento para aluguel possui 120 metros quadrados com 3 quartos em Santa Cecília - São Paulo - SP,/imovel/aluguel-apartamento-3-quartos-com-academia-santa-cecilia-centro-sao-paulo-sp-120m2-id-2516082971/,2516082971,centro,-23.5339324,-46.6552313
"Rua Frei Caneca, Bela Vista sao paulo",apartamentos,45,1,1,1,1700,"Apartamento com 1 dormitório para alugar, 45 m² por R$ 1.700,00/mês - Bela Vista - São Paulo/SP",/imovel/aluguel-apartamento-1-quarto-bela-vista-centro-sao-paulo-sp-45m2-id-2514422690/,2514422690,centro,-23.5532642,-46.6522722
"Rua Pedro Taques, Consolação sao paulo",apartamentos,46,1,1,1,2300,Apartamento para aluguel com 46 metros quadrados com 1 quarto em Consolação - São Paulo - SP,/imovel/aluguel-apartamento-1-quarto-mobiliado-consolacao-centro-sao-paulo-sp-46m2-id-2515972618/,2515972618,centro,-23.5528563,-46.6564536
"Rua Bela Cintra, Consolação sao paulo",apartamentos,55,1,1,1,2500,Rua Bela Cintra - Alugo Apto mobiliado,/imovel/aluguel-apartamento-1-quarto-mobiliado-consolacao-centro-sao-paulo-sp-55m2-id-2515874675/,2515874675,centro,-23.5563719,-46.6618301
"Rua Bueno de Andrade, Aclimação sao paulo",apartamentos,65,2,3,2,2300,SÃO PAULO - APARTAMENTO - ACLIMACAO,/imovel/aluguel-apartamento-3-quartos-com-piscina-aclimacao-centro-sao-paulo-sp-65m2-id-2516183782/,2516183782,centro,-23.5652471,-46.6314261
"Rua São Vicente de Paulo, Santa Cecília sao paulo",apartamentos,45,2,1,1,1750,Apartamento com sacada de 45m².,/imovel/aluguel-apartamento-1-quarto-com-piscina-santa-cecilia-centro-sao-paulo-sp-45m2-id-2516022024/,2516022024,centro,-23.5365446,-46.6557378
"Rua Piauí, Higienópolis sao paulo",apartamentos,52,1,2,1,2900,2 DORMITORIOS - HIGIENOPOLIS !!!,/imovel/aluguel-apartamento-2-quartos-com-piscina-higienopolis-centro-sao-paulo-sp-52m2-id-2511517292/,2511517292,centro,-23.5457499,-46.656704
"Rua Imaculada Conceição, Santa Cecília sao paulo",apartamentos,72,2,2,2,3800,"Apartamento com 2 dormitórios para alugar, 72 m² por R$ 3.800,00/mês - Santa Cecília - São Paulo/SP",/imovel/aluguel-apartamento-2-quartos-com-piscina-santa-cecilia-centro-sao-paulo-sp-72m2-id-2514762952/,2514762952,centro,-23.5393535,-46.6525667
"Rua Augusta, Consolação sao paulo",apartamentos,66,2,2,1,3700,São Paulo - Apartamento Padrão - Consolação,/imovel/aluguel-apartamento-2-quartos-com-piscina-consolacao-centro-sao-paulo-sp-66m2-id-2515228487/,2515228487,centro,-23.5570044,-46.6589972
"Rua Francisco Justino de Azevedo, Aclimação sao paulo",apartamentos,70,2,2,2,2700,São Paulo - Apartamento Padrão - Aclimação,/imovel/aluguel-apartamento-2-quartos-com-piscina-aclimacao-centro-sao-paulo-sp-70m2-id-2516341674/,2516341674,centro,-23.5619401,-46.6239615
"Rua Janumas, Vila Ema sao paulo",casas,120,1,2,1,1500,"Casa em Vila Santa Clara, São Paulo - SP - São Paulo",/imovel/aluguel-casa-2-quartos-vila-ema-zona-leste-sao-paulo-sp-120m2-id-2513342802/,2513342802,zona leste,44.933143,7.540121
Jardim Danfer sao paulo,casas,250,3,4,4,5000,São Paulo - Casa Padrão - Jardim Danfer,/imovel/aluguel-casa-4-quartos-com-quintal-jardim-danfer-zona-leste-sao-paulo-sp-250m2-id-2514994200/,2514994200,zona leste,-23.5024969,-46.5067477
Chácara Califórnia sao paulo,casas,106,1,2,1,2500,Sobrado com 02 dormitório para alugar no Tatuapé - São Paulo - SP,/imovel/aluguel-casa-2-quartos-chacara-california-zona-leste-sao-paulo-sp-106m2-id-2516409415/,2516409415,zona leste,-21.8006898,-48.1943456
"Rua Dona Maria Cândida de Lima, Vila Paulo Silas sao paulo",casas,320,2,3,4,1800,"Casa para Locação em São Paulo, Vila Paulo Silas, 3 dormitórios, 1 suíte, 2 banheiros, 4 vagas",/imovel/aluguel-casa-3-quartos-vila-paulo-silas-zona-leste-sao-paulo-sp-320m2-id-2516271294/,2516271294,zona leste,44.933143,7.540121
São Mateus sao paulo,casas,150,3,3,2,1500,São Paulo - Casa Padrão - CIDADE SÃO MATEUS,/imovel/aluguel-casa-3-quartos-sao-mateus-zona-leste-sao-paulo-sp-150m2-id-2516134498/,2516134498,zona leste,-23.5982995,-46.4817046
Tatuapé sao paulo,casas,120,2,2,2,2300,São Paulo - Casa Padrão - TATUAPE,/imovel/aluguel-casa-2-quartos-com-area-de-servico-tatuape-zona-leste-sao-paulo-sp-120m2-id-2514571758/,2514571758,zona leste,-23.5400222,-46.5765739
"Rua Uhland, Vila Ema sao paulo",casas,100,2,2,3,1400,"Casa com 2 dormitórios para alugar, 100 m² por R$ 1.400,00/mês - Vila Ema - São Paulo/SP",/imovel/aluguel-casa-2-quartos-com-cozinha-vila-ema-zona-leste-sao-paulo-sp-100m2-id-2514645388/,2514645388,zona leste,44.933143,7.540121
Penha De Franca sao paulo,casas,250,2,3,4,2350,São Paulo - Casa Padrão - Penha de França,/imovel/aluguel-casa-3-quartos-penha-de-franca-zona-leste-sao-paulo-sp-250m2-id-2515443794/,2515443794,zona leste,-23.523683,-46.5437815
Vila Popular sao paulo,casas,130,2,2,2,2000,São Paulo - Casa Padrão - VILA POPULAR,/imovel/aluguel-casa-2-quartos-vila-popular-zona-leste-sao-paulo-sp-130m2-id-2515035688/,2515035688,zona leste,-23.5541496,-48.014438
Vila Divina Pastora sao paulo,casas,95,1,3,2,1800,SÃO PAULO - Casa Padrão - VILA DIVINA PASTORA,/imovel/aluguel-casa-3-quartos-com-sala-de-jantar-vila-divina-pastora-zona-leste-sao-paulo-sp-95m2-id-2515756276/,2515756276,zona leste,44.933143,7.540121
Cangaíba sao paulo,casas,200,2,3,2,2500,"Casa com 3 dormitórios para alugar, 200 m² por R$ 2.500,00/mês - Cangaíba - São Paulo/SP",/imovel/aluguel-casa-3-quartos-com-quintal-cangaiba-zona-leste-sao-paulo-sp-200m2-id-2516136046/,2516136046,zona leste,-23.5058996,-46.5314253
"Rua Pedro de Resende, Tatuapé sao paulo",casas,100,4,3,5,3200,Casa Térrea no Tatuapé,/imovel/aluguel-casa-3-quartos-tatuape-zona-leste-sao-paulo-sp-100m2-id-2514832622/,2514832622,zona leste,-23.5372578,-46.5723303
Vila Matilde sao paulo,casas,150,2,3,1,1400,São Paulo - Casa Padrão - Vila Matilde,/imovel/aluguel-casa-3-quartos-com-quintal-vila-matilde-zona-leste-sao-paulo-sp-150m2-id-2516151790/,2516151790,zona leste,-23.536179,-46.524605
"Rua dos Cambistas, Vila Bancaria sao paulo",casas,90,2,2,2,1100,São Paulo - Casa Padrão - Vila Bancária,/imovel/aluguel-casa-2-quartos-com-quintal-vila-bancaria-zona-leste-sao-paulo-sp-90m2-id-2516106738/,2516106738,zona leste,44.933143,7.540121
"Rua Adélia Maria Felícia de Souza, Vila Carmosina sao paulo",casas,136,3,4,2,2200,Casa de 3 andares com 4 dormitórios e 1 suíte,/imovel/aluguel-casa-4-quartos-vila-carmosina-zona-leste-sao-paulo-sp-136m2-id-2516330006/,2516330006,zona leste,44.933143,7.540121
Parque da Vila Prudente sao paulo,casas,180,2,2,2,2500,"Casa com 2 dormitórios para alugar, 180 m² por R$ 2.500,00/mês - Vila Prudente (Zona Leste) - São Pa",/imovel/aluguel-casa-2-quartos-com-churrasqueira-parque-da-vila-prudente-zona-leste-sao-paulo-sp-180m2-id-2516312383/,2516312383,zona leste,-23.598523800000002,-46.57564982794667
Água Rasa sao paulo,casas,125,2,3,2,1800,São Paulo - Casa Padrão - Água Rasa,/imovel/aluguel-casa-3-quartos-com-churrasqueira-agua-rasa-zona-leste-sao-paulo-sp-125m2-id-2513894396/,2513894396,zona leste,-23.5653715,-46.57369718912304
"Rua Astorga, Vila Guilhermina sao paulo",casas,135,3,3,3,2826,São Paulo - Casa Padrão - Vila Guilhermina,/imovel/aluguel-casa-3-quartos-mobiliado-vila-guilhermina-zona-leste-sao-paulo-sp-135m2-id-2516160449/,2516160449,zona leste,-23.5307516,-46.5176066
"Rua Aldino, Chácara Belenzinho sao paulo",casas,120,2,2,1,2300,Linda Casa para Alugar Chácara Belenzinho.,/imovel/aluguel-casa-2-quartos-chacara-belenzinho-zona-leste-sao-paulo-sp-120m2-id-2516060304/,2516060304,zona leste,44.933143,7.540121
"Rua Juçaral, Parada XV de Novembro sao paulo",casas,144,2,2,1,1600,"Casa com 2 dormitórios para alugar, 144 m² por R$ 1.600/mês - Parada XV de Novembro - São Paulo/SP",/imovel/aluguel-casa-2-quartos-parada-xv-de-novembro-zona-leste-sao-paulo-sp-144m2-id-2513821683/,2513821683,zona leste,-23.5260597,-46.4355619
"Rua General Sócrates, Penha sao paulo",casas,140,1,2,1,2200,Casa para aluguel com 140 metros quadrados com 2 quartos em Penha de França - São Paulo - SP,/imovel/aluguel-casa-2-quartos-penha-zona-leste-sao-paulo-sp-140m2-id-2514422321/,2514422321,zona leste,-23.5289036,-46.5498858
"Rua Luís da Guerra, Vila Industrial sao paulo",casas,120,2,3,3,1600,Casa para venda possui 120 metros quadrados com 3 quartos em Jardim Angela - Z/L - São Paulo - SP,/imovel/aluguel-casa-3-quartos-vila-industrial-zona-leste-sao-paulo-sp-120m2-id-2513244338/,2513244338,zona leste,44.933143,7.540121
"Rua Miranda Jordão, Chácara Mafalda sao paulo",casas,99,1,2,2,1750,Sobrado em condomínio para locação próximo ao Shopping Anália Franco,/imovel/aluguel-casa-2-quartos-com-armario-de-cozinha-chacara-mafalda-zona-leste-sao-paulo-sp-99m2-id-2516200606/,2516200606,zona leste,44.933143,7.540121
"Rua Barbacena, Jardim Ana Rosa sao paulo",casas,180,4,3,2,3000,"Sobrado com 3 dormitórios para alugar, 180 m² por R$ 3.000,00/mês - Jardim Ana Rosa - São Paulo/SP",/imovel/aluguel-casa-3-quartos-com-area-de-servico-jardim-ana-rosa-zona-leste-sao-paulo-sp-180m2-id-2514109040/,2514109040,zona leste,44.933143,7.540121
"Avenida Regente Feijó, Jardim Anália Franco sao paulo",apartamentos,55,1,1,2,3500,Apartamento para aluguel possui 55 metros quadrados com 1 quarto,/imovel/aluguel-apartamento-1-quarto-com-piscina-jardim-analia-franco-zona-leste-sao-paulo-sp-55m2-id-2513380179/,2513380179,zona leste,-23.5611902,-46.5640407
"Rua Melo Peixoto, Tatuapé sao paulo",apartamentos,50,1,2,1,1300,APARTAMENTO - TATUAPÉ - METRÔ,/imovel/aluguel-apartamento-2-quartos-com-piscina-tatuape-zona-leste-sao-paulo-sp-50m2-id-2491614218/,2491614218,zona leste,-23.5391323,-46.5728545
"Rua Pastor Agenor Caldeira Diniz, Jardim Imperador sao paulo",apartamentos,55,1,2,1,1150,"Apartamento com 2 dormitórios para alugar, 55 m² por R$ 1.150,00/mês - Jardim Imperador (Zona Leste)",/imovel/aluguel-apartamento-2-quartos-com-tv-a-cabo-jardim-imperador-zona-leste-sao-paulo-sp-55m2-id-2516381412/,2516381412,zona leste,-23.5886675,-46.500046
Parque São Jorge sao paulo,apartamentos,64,2,2,1,2300,Apartamento 2 dormitorios no Tatuapé,/imovel/aluguel-apartamento-2-quartos-com-churrasqueira-parque-sao-jorge-zona-leste-sao-paulo-sp-64m2-id-2516333486/,2516333486,zona leste,-23.5299682,-46.5660668
Vila Bertioga sao paulo,apartamentos,80,2,2,1,1900,MARAVILHOSO APARTAMENTO PARA VENDA NA MOOCA,/imovel/aluguel-apartamento-2-quartos-vila-bertioga-zona-leste-sao-paulo-sp-80m2-id-2516362427/,2516362427,zona leste,-23.8613536,-46.1654454
"Rua Maria Otília, Vila Regente Feijó sao paulo",apartamentos,40,1,1,1,2200,Apartamento para aluguel com 40 metros quadrados com 1 quarto em Vila Regente Feijó - São Paulo - SP,/imovel/aluguel-apartamento-1-quarto-mobiliado-vila-regente-feijo-zona-leste-sao-paulo-sp-40m2-id-2514969702/,2514969702,zona leste,44.933143,7.540121
Brás sao paulo,apartamentos,60,2,2,1,1900,AO LADO DA ESTAÇÃO DO METRO BRÁS,/imovel/aluguel-apartamento-2-quartos-bras-zona-leste-sao-paulo-sp-60m2-id-2513250091/,2513250091,zona leste,-23.5454214,-46.6165118
"Praça Barão de Itaqui, Vila Gomes Cardim sao paulo",apartamentos,60,2,2,1,3150,IF550 Cond Deseo - 2 dorms sendo 1 suite/ 1 vaga/ lazer completo,/imovel/aluguel-apartamento-2-quartos-com-piscina-vila-gomes-cardim-zona-leste-sao-paulo-sp-60m2-id-2515380485/,2515380485,zona leste,-23.54036675,-46.568056850000005
Jardim Anália Franco sao paulo,apartamentos,76,2,2,2,3500,"Apartamento com 2 dormitórios para alugar, 76 m² por R$ 3.500,00/mês - Jardim Anália Franco - São Pa",/imovel/aluguel-apartamento-2-quartos-mobiliado-jardim-analia-franco-zona-leste-sao-paulo-sp-76m2-id-2514748789/,2514748789,zona leste,-23.5557765,-46.5622613
Tatuapé sao paulo,apartamentos,68,2,2,1,2000,São Paulo - Apartamento Padrão - Tatuapé,/imovel/aluguel-apartamento-2-quartos-tatuape-zona-leste-sao-paulo-sp-68m2-id-2514071517/,2514071517,zona leste,-23.5400222,-46.5765739
"Rua Vilela, Tatuapé sao paulo",apartamentos,45,1,1,1,1800,"Apartamento excelente, Tatuapé, ótima localização, comércio, bares, restaurantes e hospitais.",/imovel/aluguel-apartamento-1-quarto-com-churrasqueira-tatuape-zona-leste-sao-paulo-sp-45m2-id-2512623180/,2512623180,zona leste,-23.5415734,-46.5656739
"Rua Butiá, Jardim Anália Franco sao paulo",apartamentos,70,2,2,2,2243,São Paulo - Apartamento Padrão - Jardim Anália Franco,/imovel/aluguel-apartamento-2-quartos-com-piscina-jardim-analia-franco-zona-leste-sao-paulo-sp-70m2-id-2516340593/,2516340593,zona leste,44.933143,7.540121
Brás sao paulo,apartamentos,65,1,2,1,2100,São Paulo - Apartamento Padrão - BRÁS,/imovel/aluguel-apartamento-2-quartos-com-piscina-bras-zona-leste-sao-paulo-sp-65m2-id-2512615987/,2512615987,zona leste,-23.5454214,-46.6165118
Móoca sao paulo,apartamentos,92,3,3,2,4000,São Paulo - Apartamento Padrão - MOOCA,/imovel/aluguel-apartamento-3-quartos-mooca-zona-leste-sao-paulo-sp-92m2-id-2513958778/,2513958778,zona leste,-23.5606808,-46.5971924
"Rua Ipanema, Brás sao paulo",apartamentos,47,1,2,1,1900,"Apartamento residencial para locação, Brás, São Paulo.",/imovel/aluguel-apartamento-2-quartos-com-piscina-bras-zona-leste-sao-paulo-sp-47m2-id-2516124484/,2516124484,zona leste,-23.5373964,-46.226318
"Rua Piratininga, Brás sao paulo",apartamentos,55,1,2,1,1800,Apartamento para aluguel com 55 metros quadrados com 2 quartos em Brás - São Paulo - SP,/imovel/aluguel-apartamento-2-quartos-com-piscina-bras-zona-leste-sao-paulo-sp-55m2-id-2515673491/,2515673491,zona leste,-23.5537474,-46.6149949
"Rua Nicolau Barreto, Brás sao paulo",apartamentos,49,2,1,1,3000,"APTO PERTO SHOPPING MORUMBI, RUA COM SEGURANÇA",/imovel/aluguel-apartamento-1-quarto-bras-zona-leste-sao-paulo-sp-49m2-id-2511436687/,2511436687,zona leste,44.933143,7.540121
"Rua Vilela, Tatuapé sao paulo",apartamentos,40,2,1,1,1900,"Apartamento com 1 dormitório para alugar, 40 m² por R$ 1.900,00/mês - Tatuapé - São Paulo/SP",/imovel/aluguel-apartamento-1-quarto-com-interfone-tatuape-zona-leste-sao-paulo-sp-40m2-id-2515007681/,2515007681,zona leste,-23.5415734,-46.5656739
Tatuapé sao paulo,apartamentos,59,1,2,1,2500,São Paulo - Apartamento Padrão - Tatuapé,/imovel/aluguel-apartamento-2-quartos-com-piscina-tatuape-zona-leste-sao-paulo-sp-59m2-id-2516243974/,2516243974,zona leste,-23.5400222,-46.5765739
Vila Gomes Cardim sao paulo,apartamentos,95,3,3,2,2500,Apartamento lindo no Tatuapé,/imovel/aluguel-apartamento-3-quartos-com-churrasqueira-vila-gomes-cardim-zona-leste-sao-paulo-sp-95m2-id-2514785116/,2514785116,zona leste,-23.5451502,-46.5617029
Guaiaúna sao paulo,apartamentos,67,2,3,1,2500,São Paulo - Apartamento Padrão - GUAIAUNA,/imovel/aluguel-apartamento-3-quartos-com-piscina-guaiauna-zona-leste-sao-paulo-sp-67m2-id-2512607594/,2512607594,zona leste,-23.6509074,-46.5200669
"Rua Visconde de Parnaíba, Móoca sao paulo",apartamentos,45,2,1,1,1550,São Paulo - Apartamento Padrão - Mooca,/imovel/aluguel-apartamento-1-quarto-com-piscina-mooca-zona-leste-sao-paulo-sp-45m2-id-2516162086/,2516162086,zona leste,-23.5469212,-46.6090398
"Rua José dos Reis, Vila Prudente sao paulo",apartamentos,61,2,2,1,2244,São Paulo - Apartamento Padrão - Vila Prudente,/imovel/venda-apartamento-2-quartos-com-piscina-vila-prudente-zona-leste-sao-paulo-sp-61m2-id-2516278723/,2516278723,zona leste,-23.586664,-46.58155
"Rua Filipe Camarão, Tatuapé sao paulo",apartamentos,50,1,1,1,2000,"Apartamento com 1 dormitório para alugar, 50 m² por R$ 2.000,00/mês - Tatuapé - São Paulo/SP",/imovel/aluguel-apartamento-1-quarto-com-piscina-tatuape-zona-leste-sao-paulo-sp-50m2-id-2514166712/,2514166712,zona leste,44.933143,7.540121
Vila Sabrina sao paulo,casas,120,1,3,2,2500,"Sobrado com 3 dormitórios para alugar, 120 m² por R$ 2.500,00/mês - Vila Sabrina - São Paulo/SP",/imovel/aluguel-casa-3-quartos-com-quintal-vila-sabrina-zona-norte-sao-paulo-sp-120m2-id-2511673881/,2511673881,zona norte,-23.4912022,-46.5766581
Jardim Guança sao paulo,casas,127,1,3,2,2500,"Sobrado com 3 dormitórios para alugar, 127 m² por R$ 2.500,00/mês - Jardim Guanca - São Paulo/SP",/imovel/aluguel-casa-3-quartos-com-quintal-jardim-guanca-zona-norte-sao-paulo-sp-127m2-id-2513415284/,2513415284,zona norte,44.933143,7.540121
Jardim São Paulo sao paulo,casas,32,1,1,0,1200,"Casa com 1 dormitório para alugar, 32 m² por R$ 1.200,00/mês - Jardim São Paulo(Zona Norte) - São Pa",/imovel/aluguel-casa-1-quarto-com-interfone-jardim-sao-paulo-zona-norte-sao-paulo-sp-32m2-id-2515888585/,2515888585,zona norte,-22.7560139,-47.3384104
Tremembé sao paulo,casas,120,2,3,2,2000,"Casa com 3 dormitórios para alugar, 120 m² por R$ 2.000,00",/imovel/aluguel-casa-3-quartos-com-interfone-tremembe-zona-norte-sao-paulo-sp-120m2-id-2516237785/,2516237785,zona norte,-22.95714,-45.547526
Jardim São Paulo sao paulo,casas,74,2,2,2,2000,CASA TÉRREA JARDIM SÃO PAULO,/imovel/aluguel-casa-2-quartos-jardim-sao-paulo-zona-norte-sao-paulo-sp-74m2-id-2516364485/,2516364485,zona norte,-22.7560139,-47.3384104
"Avenida Nova Cantareira, Tucuruvi sao paulo",casas,120,2,3,2,2000,SOBRADO - TUCURUVI - SP,/imovel/aluguel-casa-3-quartos-tucuruvi-zona-norte-sao-paulo-sp-120m2-id-2516251221/,2516251221,zona norte,-23.4772716,-46.6105374
Vila Dom Pedro II sao paulo,casas,240,4,3,4,3000,AMPLO SOBRADO NA PARADA INGLESA,/imovel/aluguel-casa-3-quartos-com-quintal-vila-dom-pedro-ii-zona-norte-sao-paulo-sp-240m2-id-2516362524/,2516362524,zona norte,-21.1310318,-51.0950545
"Rua Francisca Biriba, Santa Teresinha sao paulo",casas,130,3,3,2,2650,SAO PAULO - CASA - SANTA TERESINHA,/imovel/aluguel-casa-3-quartos-com-quintal-santa-teresinha-zona-norte-sao-paulo-sp-130m2-id-2516183781/,2516183781,zona norte,44.933143,7.540121
"Rua Maria Lopes, Horto Florestal sao paulo",casas,140,3,3,3,2800,Sobrado Locação Horto Florestal,/imovel/aluguel-casa-3-quartos-horto-florestal-zona-norte-sao-paulo-sp-140m2-id-2514144442/,2514144442,zona norte,-23.4554816,-46.630984
Vila Palmeiras sao paulo,casas,150,1,2,2,2200,"Sobrado com 2 dormitórios e 2 suítes para alugar, 150 m² - Vila Palmeiras - São Paulo/SP",/imovel/aluguel-casa-2-quartos-com-tv-a-cabo-vila-palmeiras-zona-norte-sao-paulo-sp-150m2-id-2512498477/,2512498477,zona norte,-23.4922019,-47.4628392
"Rua Mário Eloy, Jardim Carlu sao paulo",casas,260,4,3,4,3000,"Sobrado para Locação em São Paulo, Jardim Carlu, 3 dormitórios, 1 suíte, 4 banheiros, 4 vagas",/imovel/aluguel-casa-3-quartos-jardim-carlu-zona-norte-sao-paulo-sp-260m2-id-2516348719/,2516348719,zona norte,44.933143,7.540121
Freguesia do Ó sao paulo,casas,127,2,3,2,2700,"Sobrado com 3 dormitórios para alugar, 127 m² por R$ 2.700,00/mês - Freguesia do Ó - São Paulo/SP",/imovel/aluguel-casa-3-quartos-com-quintal-freguesia-do-o-zona-norte-sao-paulo-sp-127m2-id-2516331892/,2516331892,zona norte,-23.4874636,-46.6951317
"Estrada do Sabão, Freguesia do Ó sao paulo",casas,100,2,3,3,2300,Casa térrea,/imovel/aluguel-casa-3-quartos-freguesia-do-o-zona-norte-sao-paulo-sp-100m2-id-2516093200/,2516093200,zona norte,-23.4679826,-46.697621
"Rua Antônio João, Sítio do Morro sao paulo",casas,80,1,2,1,1500,"Casa com 2 dormitórios para alugar, 80 m² por R$ 1.500,00/mês - Sítio do Morro - São Paulo/SP",/imovel/aluguel-casa-2-quartos-com-quintal-sitio-do-morro-zona-norte-sao-paulo-sp-80m2-id-2516277215/,2516277215,zona norte,44.933143,7.540121
"Rua Solano Trindade, Parque Ramos Freitas sao paulo",casas,150,2,2,2,1600,Casa para aluguel tem 150 metros quadrados com 2 quartos em Parque Ramos Freitas - São Paulo - SP,/imovel/aluguel-casa-2-quartos-parque-ramos-freitas-zona-norte-sao-paulo-sp-150m2-id-2515986379/,2515986379,zona norte,44.933143,7.540121
Vila Mariza Mazzei sao paulo,casas,115,3,3,2,3700,Sobrado Novo para Locação !!!,/imovel/aluguel-casa-3-quartos-vila-mariza-mazzei-zona-norte-sao-paulo-sp-115m2-id-2516363707/,2516363707,zona norte,44.933143,7.540121
"Rua Manuel da Cunha, Água Fria sao paulo",casas,162,5,3,3,2894,São Paulo - Casa Padrão - Água Fria,/imovel/aluguel-casa-3-quartos-com-armario-de-cozinha-agua-fria-zona-norte-sao-paulo-sp-162m2-id-2516340584/,2516340584,zona norte,-23.490221,-46.614726
Vila Sabrina sao paulo,casas,120,3,3,2,2500,SãO PAULO - Casa Padrão - Vila Sabrina,/imovel/aluguel-casa-3-quartos-com-sala-de-jantar-vila-sabrina-zona-norte-sao-paulo-sp-120m2-id-2515203211/,2515203211,zona norte,-23.4912022,-46.5766581
Vila Santa Delfina sao paulo,casas,125,3,3,3,3400,Sobrado com 3 dormitórios - venda por R$ 800.000 ou aluguel por R$ 3.400/mês - Próx. Edgard Facó- Sã,/imovel/venda-casa-3-quartos-com-churrasqueira-vila-santa-delfina-zona-norte-sao-paulo-sp-125m2-id-2511914603/,2511914603,zona norte,44.933143,7.540121
"Avenida Senador José Ermírio de Moraes, Tremembé sao paulo",casas,120,2,3,2,2000,"Casa para Locação em São Paulo, Tremembé, 3 dormitórios, 1 suíte, 2 banheiros, 2 vagas",/imovel/aluguel-casa-3-quartos-tremembe-zona-norte-sao-paulo-sp-120m2-id-2514953028/,2514953028,zona norte,-23.4526248,-46.6145906
"Rua Hortensia, Jardim do Colegio Zona Norte sao paulo",casas,115,3,3,2,3700,Sobrado novo para locação no Jardim do Colégio,/imovel/aluguel-casa-3-quartos-com-churrasqueira-jardim-do-colegio-zona-norte-zona-norte-sao-paulo-sp-115m2-id-2515476379/,2515476379,zona norte,44.933143,7.540121
"Rua Oswaldo Casella, Vila Siqueira sao paulo",casas,100,2,3,2,2700,Sobrado com 100 m² na Vila Siqueira para locação,/imovel/aluguel-casa-3-quartos-com-cozinha-vila-siqueira-zona-norte-sao-paulo-sp-100m2-id-2514196416/,2514196416,zona norte,44.933143,7.540121
"Rua Salvador Padilha Gimenes, Vila Santa Maria sao paulo",casas,110,3,2,2,2200,"Sobrado com 2 dormitórios para alugar, 110 m² por R$ 2.200,00/mês - Limão - São Paulo/SP",/imovel/aluguel-casa-2-quartos-com-churrasqueira-vila-santa-maria-zona-norte-sao-paulo-sp-110m2-id-2514630291/,2514630291,zona norte,44.933143,7.540121
"Rua Sousa Filho, Freguesia do Ó sao paulo",casas,150,2,3,3,2300,São Paulo - Casa Padrão - Freguesia do Ó,/imovel/aluguel-casa-3-quartos-com-area-de-servico-freguesia-do-o-zona-norte-sao-paulo-sp-150m2-id-2515466894/,2515466894,zona norte,-23.5032625,-46.7043221
"Rua Padre Agostinho Poncet, Água Fria sao paulo",apartamentos,60,1,2,1,1600,São Paulo - Apartamento Padrão - Água Fria,/imovel/aluguel-apartamento-2-quartos-agua-fria-zona-norte-sao-paulo-sp-60m2-id-2493246993/,2493246993,zona norte,-23.4843718,-46.6278195
Vila Sabrina sao paulo,apartamentos,26,1,1,0,900,SãO PAULO - Apartamento Padrão - Vila Sabrina,/imovel/aluguel-apartamento-1-quarto-vila-sabrina-zona-norte-sao-paulo-sp-26m2-id-2486657391/,2486657391,zona norte,-23.4912022,-46.5766581
Pirituba sao paulo,apartamentos,48,1,2,1,1450,São Paulo - Apartamento Padrão - Pirituba,/imovel/aluguel-apartamento-2-quartos-com-area-de-servico-pirituba-zona-norte-sao-paulo-sp-48m2-id-2500908310/,2500908310,zona norte,-23.485533,-46.7219385
"Rua João Rudge, Casa Verde sao paulo",apartamentos,83,3,2,2,2800,"Apartamento com 2 dormitórios para alugar, 83 m² por R$ 2.800,00/mês - Casa Verde (Zona Norte) - São",/imovel/aluguel-apartamento-2-quartos-com-piscina-casa-verde-zona-norte-sao-paulo-sp-83m2-id-2515917617/,2515917617,zona norte,-23.5148623,-46.6552362
"Rua Ezequiel Freire, Santana sao paulo",apartamentos,44,1,1,0,2200,Apartamento SÃO PAULO,/imovel/aluguel-apartamento-1-quarto-santana-zona-norte-sao-paulo-sp-44m2-id-2493800495/,2493800495,zona norte,-23.4996816,-46.6235157
"Avenida Santa Inês, Mandaqui sao paulo",apartamentos,84,2,3,2,2000,"Apartamento 3 dormitórios, 2 vagas, com armários - Mandaqui - São Paulo-SP",/imovel/aluguel-apartamento-3-quartos-com-elevador-mandaqui-zona-norte-sao-paulo-sp-84m2-id-2513223096/,2513223096,zona norte,-23.4586618,-46.6484346
Parada Inglesa sao paulo,apartamentos,80,2,3,2,3000,Apartamento vago c/2 vagas ao lado do Metrô c/ Varanda Gourmet e lazer completo andar alto,/imovel/aluguel-apartamento-3-quartos-parada-inglesa-zona-norte-sao-paulo-sp-80m2-id-2514201641/,2514201641,zona norte,-23.48701895,-46.60884227694062
"Avenida José Maria Fernandes, Parque Novo Mundo sao paulo",apartamentos,59,2,2,1,1700,"Condomínio Ravenna Apartamento com 2 dormitórios para alugar, 58 m² por R$ 1.700/mês - Parque Novo M",/imovel/aluguel-apartamento-2-quartos-com-piscina-parque-novo-mundo-zona-norte-sao-paulo-sp-59m2-id-2516253622/,2516253622,zona norte,-23.5098635,-46.5664346
"Rua Santo Egídio, Santana sao paulo",apartamentos,60,2,2,1,2100,São Paulo - Apartamento Padrão - Santana,/imovel/aluguel-apartamento-2-quartos-com-piscina-santana-zona-norte-sao-paulo-sp-60m2-id-2516280487/,2516280487,zona norte,-23.4915641,-46.6382101
"Avenida José Maria Fernandes, Parque Novo Mundo sao paulo",apartamentos,58,2,2,1,1800,São Paulo - Apartamento Padrão - Parque Novo Mundo,/imovel/aluguel-apartamento-2-quartos-com-piscina-parque-novo-mundo-zona-norte-sao-paulo-sp-58m2-id-2516341678/,2516341678,zona norte,-23.5098635,-46.5664346
"Avenida General Ataliba Leonel, Parada Inglesa sao paulo",apartamentos,80,2,3,2,3000,"Apartamento com 80 m², 3 dormitórios, Varanda Gourmet e 2 Vagas na Parada Inglesa",/imovel/aluguel-apartamento-3-quartos-parada-inglesa-zona-norte-sao-paulo-sp-80m2-id-2514156604/,2514156604,zona norte,-23.4859395,-46.6049095
"Avenida Guapira, Tucuruvi sao paulo",apartamentos,41,1,2,1,1700,Apartamento para aluguel tem 41 metros quadrados com 2 quartos em Tucuruvi - São Paulo - SP,/imovel/aluguel-apartamento-2-quartos-com-piscina-tucuruvi-zona-norte-sao-paulo-sp-41m2-id-2514133238/,2514133238,zona norte,-23.4804768,-46.6003199
"Avenida General Ataliba Leonel, Parada Inglesa sao paulo",apartamentos,80,2,3,2,3000,"Apartamento com 3 dormitórios para alugar, 80 m² por R$ 3.000/mês - Parada Inglesa - São Paulo/SP",/imovel/aluguel-apartamento-3-quartos-com-armario-de-cozinha-parada-inglesa-zona-norte-sao-paulo-sp-80m2-id-2514259881/,2514259881,zona norte,-23.4859395,-46.6049095
Santana sao paulo,apartamentos,55,1,1,1,1200,APTO EM SANTANA,/imovel/aluguel-apartamento-1-quarto-com-piscina-santana-zona-norte-sao-paulo-sp-55m2-id-2516362528/,2516362528,zona norte,-23.499321000000002,-46.6289326497014
Santana sao paulo,apartamentos,65,2,2,2,2500,EXCELENTE APARTAMENTO NA DR. CESAR EM SANTANA,/imovel/aluguel-apartamento-2-quartos-santana-zona-norte-sao-paulo-sp-65m2-id-2516309595/,2516309595,zona norte,-23.499321000000002,-46.6289326497014
Vila Barreto sao paulo,apartamentos,55,2,2,1,1500,"Apartamento para Locação em São Paulo, Vila Barreto, 2 dormitórios, 1 suíte, 2 banheiros, 1 vaga",/imovel/aluguel-apartamento-2-quartos-com-churrasqueira-vila-barreto-zona-norte-sao-paulo-sp-55m2-id-2516339185/,2516339185,zona norte,-23.6965025,-46.3735511
Santana sao paulo,apartamentos,80,2,3,0,2400,"Apartamento com 3 dormitórios para alugar, 80 m² por R$ 2.400,00/mês - Santana (Zona Norte) - São Pa",/imovel/aluguel-apartamento-3-quartos-com-deposito-privativo-no-subsolo-santana-zona-norte-sao-paulo-sp-80m2-id-2516136313/,2516136313,zona norte,-23.499321000000002,-46.6289326497014
"Rua Jacaré-Copaíba, Freguesia do Ó sao paulo",apartamentos,53,2,2,1,2000,"Apartamento com 2 dormitórios para alugar, 53 m² por R$ 2.000,00/mês - Freguesia do Ó - São Paulo/SP",/imovel/aluguel-apartamento-2-quartos-com-piscina-freguesia-do-o-zona-norte-sao-paulo-sp-53m2-id-2514094626/,2514094626,zona norte,-23.4835353,-46.7017201
Vila Ester Zona Norte sao paulo,apartamentos,55,1,2,2,2600,SÃO PAULO - Apartamento Padrão - VILA ESTER (ZONA NORTE),/imovel/aluguel-apartamento-2-quartos-com-piscina-vila-ester-zona-norte-zona-norte-sao-paulo-sp-55m2-id-2516274940/,2516274940,zona norte,44.933143,7.540121
Santa Teresinha sao paulo,apartamentos,62,1,2,1,1900,São Paulo - Apartamento Padrão - SANTA TERESINHA,/imovel/aluguel-apartamento-2-quartos-com-piscina-santa-teresinha-zona-norte-sao-paulo-sp-62m2-id-2512605651/,2512605651,zona norte,-22.394423449999998,-49.76905656346154
Santana sao paulo,apartamentos,42,1,1,1,2500,São Paulo - Kitchenette/Studio - Santana,/imovel/aluguel-apartamento-1-quarto-com-piscina-santana-zona-norte-sao-paulo-sp-42m2-id-2515201349/,2515201349,zona norte,-23.499321000000002,-46.6289326497014
Jardim Brasil sao paulo,apartamentos,63,2,2,1,1500,SãO PAULO - Apartamento Padrão - Jardim Brasil (Zona Norte),/imovel/aluguel-apartamento-2-quartos-com-sala-de-jantar-jardim-brasil-zona-norte-sao-paulo-sp-63m2-id-2512014074/,2512014074,zona norte,-22.1906339,-46.7797241
Vila Amália sao paulo,apartamentos,68,2,3,2,1600,Apartamento VILA AMALIA SAO PAULO SP Brasil,/imovel/aluguel-apartamento-3-quartos-vila-amalia-zona-norte-sao-paulo-sp-68m2-id-2516331094/,2516331094,zona norte,-23.471303,-46.6528931
Vila Maria sao paulo,apartamentos,65,2,2,1,1700,São Paulo - Apartamento Padrão - Vila Maria,/imovel/aluguel-apartamento-2-quartos-com-area-de-servico-vila-maria-zona-norte-sao-paulo-sp-65m2-id-2514885000/,2514885000,zona norte,-23.5131836,-46.5891557
"Rua Major Paladino, Vila Ribeiro De Barros sao paulo",casas,80,1,1,1,950,"Casa com 1 dormitório para alugar, 80 m² por R$ 950,00/mês - Vila Ribeiro de Barros - São Paulo/SP",/imovel/aluguel-casa-1-quarto-vila-ribeiro-de-barros-zona-oeste-sao-paulo-sp-80m2-id-2512083512/,2512083512,zona oeste,44.933143,7.540121
"Rua Pepiguari, Alto da Lapa sao paulo",casas,238,3,5,4,8000,SãO PAULO - Casa Padrão - Alto Da Lapa,/imovel/venda-casa-5-quartos-com-quintal-alto-da-lapa-zona-oeste-sao-paulo-sp-238m2-id-2488182805/,2488182805,zona oeste,-23.5347179,-46.7114814
"Rua Hayden, Vila Leopoldina sao paulo",casas,150,2,3,1,3500,"Sobrado para alugar, 150 m² por R$ 3.500,00/mês - Vila Leopoldina - São Paulo/SP",/imovel/aluguel-casa-3-quartos-vila-leopoldina-zona-oeste-sao-paulo-sp-150m2-id-2446364322/,2446364322,zona oeste,-23.530854,-46.7350848
"Rua Dácio Aguiar de Moraes, Vila Gomes sao paulo",casas,60,1,2,3,1250,"Casa Terrea para locação, amplo quintal - Vila Gomes - São Paulo - SP",/imovel/aluguel-casa-2-quartos-com-quintal-vila-gomes-zona-oeste-sao-paulo-sp-60m2-id-2515875173/,2515875173,zona oeste,44.933143,7.540121
"Rua Charles D'Aviler, Jardim Das Palmas sao paulo",casas,125,3,3,2,2100,"Casa com 3 dormitórios para alugar, 125 m² por R$ 2.100,00/mês - Jardim das Palmas - São Paulo/SP",/imovel/aluguel-casa-3-quartos-com-churrasqueira-jardim-das-palmas-zona-oeste-sao-paulo-sp-125m2-id-2515635404/,2515635404,zona oeste,44.933143,7.540121
"Rua José Cabral Pereira, Jaguaré sao paulo",casas,100,2,3,2,1700,Casa para aluguel com 100 metros quadrados com 3 quartos em Jaguaré - São Paulo - SP,/imovel/aluguel-casa-3-quartos-jaguare-zona-oeste-sao-paulo-sp-100m2-id-2514717314/,2514717314,zona oeste,-23.5530741,-46.7447239
Perdizes sao paulo,casas,120,2,2,1,2700,AO LADO DO BAR DO SOUZA POMPEIA,/imovel/aluguel-casa-2-quartos-perdizes-zona-oeste-sao-paulo-sp-120m2-id-2516358997/,2516358997,zona oeste,-23.537929499999997,-46.68067051085396
Jardim Iracema sao paulo,casas,60,1,2,2,1450,SÃO PAULO - Casa Padrão - JARDIM IRACEMA,/imovel/aluguel-casa-2-quartos-jardim-iracema-zona-oeste-sao-paulo-sp-60m2-id-2516061301/,2516061301,zona oeste,-23.5122386,-46.8604775
"Rua João Plácido Viana, Jardim Ester Yolanda sao paulo",casas,110,3,2,2,2000,Casa para aluguel tem 110 metros quadrados com 2 quartos em Jardim Ester Yolanda - São Paulo - SP,/imovel/aluguel-casa-2-quartos-jardim-ester-yolanda-zona-oeste-sao-paulo-sp-110m2-id-2515370999/,2515370999,zona oeste,44.933143,7.540121
"Rua Tiburtino, Siciliano sao paulo",casas,240,2,4,2,3600,"Sobrado com 4 dormitórios para alugar, 240 m² por R$ 3.600,00 - Siciliano - São Paulo/SP",/imovel/aluguel-casa-4-quartos-siciliano-zona-oeste-sao-paulo-sp-240m2-id-2514570477/,2514570477,zona oeste,-23.5303597,-46.7019756
"Rua José Barbosa, Butantã sao paulo",casas,160,3,3,1,2200,São Paulo - Casa Padrão - Butantã,/imovel/aluguel-casa-3-quartos-butanta-zona-oeste-sao-paulo-sp-160m2-id-2516159963/,2516159963,zona oeste,44.933143,7.540121
"Rua Rifaina, Pompeia sao paulo",casas,80,2,2,0,1700,Casa para aluguel com 80 metros quadrados com 2 quartos em Vila Anglo Brasileira - São Paulo - SP,/imovel/aluguel-casa-2-quartos-pompeia-zona-oeste-sao-paulo-sp-80m2-id-2516344355/,2516344355,zona oeste,44.933143,7.540121
"Rua Domenico Ferrara, Cidade D Abril sao paulo",casas,100,2,2,3,2200,"Casa com 2 dormitórios para alugar, 100 m² por R$ 2.200,00/mês - Cidade D Abril - São Paulo/SP",/imovel/aluguel-casa-2-quartos-com-churrasqueira-cidade-d-abril-zona-oeste-sao-paulo-sp-100m2-id-2515061786/,2515061786,zona oeste,44.933143,7.540121
"Rua Santa Romana, Piqueri sao paulo",casas,100,2,2,2,1650,São Paulo - Casa Padrão - Piqueri,/imovel/aluguel-casa-2-quartos-piqueri-zona-oeste-sao-paulo-sp-100m2-id-2516045890/,2516045890,zona oeste,-23.4963608,-46.7099005
"Rua Nilza Medeiros Martins, Vila Sônia sao paulo",casas,220,5,3,2,3700,São Paulo - Casa Padrão - Vila Sônia,/imovel/venda-casa-3-quartos-com-churrasqueira-vila-sonia-zona-oeste-sao-paulo-sp-220m2-id-2515978617/,2515978617,zona oeste,-23.5994121,-46.7295652
"Viela B, Butantã sao paulo",casas,100,2,2,1,1900,São Paulo - Casa Padrão - Butantã,/imovel/aluguel-casa-2-quartos-com-armario-de-cozinha-butanta-zona-oeste-sao-paulo-sp-100m2-id-2515831874/,2515831874,zona oeste,-23.57180265,-46.722987247166216
"Rua Professor José Geraldo de Lima, Vila Tiradentes sao paulo",casas,110,2,3,3,2550,CASA SOBREPOSTA - VILA TIRADENTES - SP,/imovel/aluguel-casa-3-quartos-vila-tiradentes-zona-oeste-sao-paulo-sp-110m2-id-2515347402/,2515347402,zona oeste,44.933143,7.540121
Butantã sao paulo,casas,125,1,3,2,2100,SãO PAULO - Casa Padrão - Butantã,/imovel/aluguel-casa-3-quartos-com-armario-embutido-butanta-zona-oeste-sao-paulo-sp-125m2-id-2515913617/,2515913617,zona oeste,-23.5690555,-46.7218833626702
"Rua Doutor Ernani da Gama Corrêa, Conjunto Residencial Butantã sao paulo",casas,108,2,2,1,2700,"Casa com 2 dormitórios para alugar, 108 m² por R$ 2.700,00/mês - Conjunto Residencial Butantã - São",/imovel/aluguel-casa-2-quartos-com-armario-de-cozinha-conjunto-residencial-butanta-zona-oeste-sao-paulo-sp-108m2-id-2514156526/,2514156526,zona oeste,44.933143,7.540121
"Rua Pascoal Vita, Vila Madalena sao paulo",casas,120,1,2,2,2300,São Paulo - Casa Padrão - Vila Madalena,/imovel/aluguel-casa-2-quartos-vila-madalena-zona-oeste-sao-paulo-sp-120m2-id-2515899935/,2515899935,zona oeste,44.933143,7.540121
"Rua Doutor Paulo Ribeiro Coelho, Jardim Ester Yolanda sao paulo",casas,137,2,3,2,2200,"Sobrado com 3 dormitórios para alugar, 137 m² por R$ 2.200,00/mês - Jardim Ester Yolanda - São Paulo",/imovel/aluguel-casa-3-quartos-com-area-de-servico-jardim-ester-yolanda-zona-oeste-sao-paulo-sp-137m2-id-2514683244/,2514683244,zona oeste,44.933143,7.540121
"Rua Padre Lamberto Martin, Jardim Pinheiros sao paulo",casas,142,3,3,2,2800,"Sobrado com 3 dormitórios para alugar, 142 m² por R$ 2.700,00/mês - Jardim Pinheiros - São Paulo/SP",/imovel/aluguel-casa-3-quartos-jardim-pinheiros-zona-oeste-sao-paulo-sp-142m2-id-2512133913/,2512133913,zona oeste,44.933143,7.540121
"Rua Tenente João Salustiano Lira, Jardim Humaitá sao paulo",casas,200,3,3,2,3000,"Sobrado com 3 Quartos, 3 banheiros e 2 Vagas à Venda, 200 m²",/imovel/venda-casa-3-quartos-jardim-humaita-zona-oeste-sao-paulo-sp-200m2-id-2513171384/,2513171384,zona oeste,44.933143,7.540121
"Rua Ana Luiza Florence Borges, Vila Sao Francisco sao paulo",casas,80,2,3,2,2100,Casa para aluguel possui 80 metros quadrados com 3 quartos em Vila São Francisco - São Paulo - SP,/imovel/aluguel-casa-3-quartos-com-infraestrutura-internet-vila-sao-francisco-zona-oeste-sao-paulo-sp-80m2-id-2515729877/,2515729877,zona oeste,44.933143,7.540121
"Rua Domingos Lopes da Silva, Vila Suzana sao paulo",apartamentos,35,1,1,1,1350,SÃO PAULO - APARTAMENTO - VILA SUZANA,/imovel/aluguel-apartamento-1-quarto-mobiliado-vila-suzana-zona-oeste-sao-paulo-sp-35m2-id-2512860077/,2512860077,zona oeste,44.933143,7.540121
"Rua Cardeal Arcoverde, Pinheiros sao paulo",apartamentos,52,1,2,1,3970,Pinheiros – 2 Dormitórios – Andar Alto – Pronto pra Morar - Metro Sumare,/imovel/aluguel-apartamento-2-quartos-com-piscina-pinheiros-zona-oeste-sao-paulo-sp-52m2-id-2501700205/,2501700205,zona oeste,-23.5580184,-46.6823188
"Rua Brigadeiro Galvão, Barra Funda sao paulo",apartamentos,81,2,3,2,3800,São Paulo - Apartamento Padrão - Barra Funda,/imovel/aluguel-apartamento-3-quartos-mobiliado-barra-funda-zona-oeste-sao-paulo-sp-81m2-id-2512925386/,2512925386,zona oeste,44.933143,7.540121
"Rua Euclides de Andrade, Pompeia sao paulo",apartamentos,47,1,1,1,3500,Apartamento para aluguel possui 47 metros quadrados com 1 quarto,/imovel/aluguel-apartamento-1-quarto-com-piscina-pompeia-zona-oeste-sao-paulo-sp-47m2-id-2516137440/,2516137440,zona oeste,44.933143,7.540121
"Rua Francisco Santoro, Jardim Monte Kemel sao paulo",apartamentos,59,2,2,1,2500,"Apartamento com 2 dormitórios para alugar, 59 m² por R$ 2.500,00/mês - Jardim Monte Kemel - São Paul",/imovel/aluguel-apartamento-2-quartos-com-piscina-jardim-monte-kemel-zona-oeste-sao-paulo-sp-59m2-id-2514085147/,2514085147,zona oeste,44.933143,7.540121
"Avenida Doutor Cândido Motta Filho, Cidade São Francisco sao paulo",apartamentos,58,2,2,1,3095,São Paulo - Apartamento Padrão - Cidade São Francisco,/imovel/aluguel-apartamento-2-quartos-com-piscina-cidade-sao-francisco-zona-oeste-sao-paulo-sp-58m2-id-2516280384/,2516280384,zona oeste,44.933143,7.540121
"Rua dos Americanos, Barra Funda sao paulo",apartamentos,62,2,2,1,2500,Apartamento para aluguel com 62 metros quadrados com 2 quartos em Barra Funda - São Paulo - SP,/imovel/aluguel-apartamento-2-quartos-com-piscina-barra-funda-zona-oeste-sao-paulo-sp-62m2-id-2512546616/,2512546616,zona oeste,44.933143,7.540121
Barra Funda sao paulo,apartamentos,56,2,2,1,2600,"Apartamento na Barra Funda - São Paulo, SP",/imovel/aluguel-apartamento-2-quartos-barra-funda-zona-oeste-sao-paulo-sp-56m2-id-2515398520/,2515398520,zona oeste,-23.5254152,-46.666751
"Rua Dom João V, Lapa sao paulo",apartamentos,40,1,1,1,2000,"Condomínio Edifício London | Rua Dom João V, 610",/imovel/aluguel-apartamento-1-quarto-com-piscina-lapa-zona-oeste-sao-paulo-sp-40m2-id-2515413202/,2515413202,zona oeste,-23.5196003,-46.7097057
"Avenida Kenkiti Simomoto, Jaguaré sao paulo",apartamentos,55,2,2,1,2150,São Paulo - Apartamento Padrão - Jaguaré,/imovel/venda-apartamento-2-quartos-mobiliado-jaguare-zona-oeste-sao-paulo-sp-55m2-id-2515545292/,2515545292,zona oeste,-23.5486909,-46.7429195
"Rua Melo Palheta, Água Branca sao paulo",apartamentos,143,2,3,3,8000,Apartamento para locação 143 m2 3 vagas 3 suítes,/imovel/aluguel-apartamento-3-quartos-com-piscina-agua-branca-zona-oeste-sao-paulo-sp-143m2-id-2513313622/,2513313622,zona oeste,44.933143,7.540121
Perdizes sao paulo,apartamentos,45,1,1,1,2100,Apto p/ Locação em Perdizes,/imovel/aluguel-apartamento-1-quarto-perdizes-zona-oeste-sao-paulo-sp-45m2-id-2514398818/,2514398818,zona oeste,-23.537929499999997,-46.68067051085396
"Rua Francisco Luiz de Souza Júnior, Água Branca sao paulo",apartamentos,70,2,3,1,2450,03 DORMITORIOS - BARRA - FUNDA !!,/imovel/aluguel-apartamento-3-quartos-com-piscina-agua-branca-zona-oeste-sao-paulo-sp-70m2-id-2515874424/,2515874424,zona oeste,44.933143,7.540121
"Rua Bela Cintra, Jardins sao paulo",apartamentos,50,2,1,0,2500,SAO PAULO - Apartamento Padrão - Jardins,/imovel/aluguel-apartamento-1-quarto-com-jardim-jardins-zona-oeste-sao-paulo-sp-50m2-id-2511979113/,2511979113,zona oeste,44.933143,7.540121
"Rua da Consolação, Jardins sao paulo",apartamentos,135,4,3,2,5600,Apartamento para aluguel tem 135 metros quadrados com 3 quartos em Cerqueira César - São Paulo - SP,/imovel/aluguel-apartamento-3-quartos-com-jardim-jardins-zona-oeste-sao-paulo-sp-135m2-id-2516069398/,2516069398,zona oeste,44.933143,7.540121
"Rua da Consolação, Jardins sao paulo",apartamentos,102,3,2,2,5100,Jardins - Apartamento Super! Totalmente reformado 2 suítes máster,/imovel/aluguel-apartamento-2-quartos-com-salao-de-festas-jardins-zona-oeste-sao-paulo-sp-102m2-id-2512563679/,2512563679,zona oeste,44.933143,7.540121
"Rua José Augusto Penteado, Vila Madalena sao paulo",apartamentos,70,2,1,1,3800,São Paulo - Apartamento Padrão - Vila Madalena,/imovel/aluguel-apartamento-1-quarto-com-piscina-vila-madalena-zona-oeste-sao-paulo-sp-70m2-id-2515780083/,2515780083,zona oeste,44.933143,7.540121
"Avenida Raimundo Pereira de Magalhães, Vila Anastácio sao paulo",apartamentos,87,2,2,2,3000,São Paulo - Apartamento Padrão - vila anastácio,/imovel/aluguel-apartamento-2-quartos-com-armario-embutido-vila-anastacio-zona-oeste-sao-paulo-sp-87m2-id-2516229797/,2516229797,zona oeste,-23.5100404,-46.7149133
"Rua Doutor Luiz Migliano, Jardim Caboré sao paulo",apartamentos,90,2,2,2,2800,Apartamento para aluguel tem 90 metros quadrados com 2 quartos em Jardim Caboré - São Paulo - SP,/imovel/aluguel-apartamento-2-quartos-jardim-cabore-zona-oeste-sao-paulo-sp-90m2-id-2504401191/,2504401191,zona oeste,44.933143,7.540121
"Rua José Augusto Penteado, Vila Madalena sao paulo",apartamentos,64,2,2,1,3700,2 DORMITÓRIOS (1 STE) 64m2 ANDAR ALTO VARANDA 1 VAGA,/imovel/aluguel-apartamento-2-quartos-com-piscina-vila-madalena-zona-oeste-sao-paulo-sp-64m2-id-2512595490/,2512595490,zona oeste,44.933143,7.540121
"Vila Tagipuru, Barra Funda sao paulo",apartamentos,70,2,3,1,3500,Próximo ao Metrô Barra Funda,/imovel/aluguel-apartamento-3-quartos-com-piscina-barra-funda-zona-oeste-sao-paulo-sp-70m2-id-2514167233/,2514167233,zona oeste,44.933143,7.540121
"Praça Alexandre de Gusmão, Jardins sao paulo",apartamentos,50,2,1,1,3800,São Paulo - Apartamento Padrão - Jardins,/imovel/aluguel-apartamento-1-quarto-com-piscina-jardins-zona-oeste-sao-paulo-sp-50m2-id-2514295541/,2514295541,zona oeste,44.933143,7.540121
"Rua Doutor Hélio Fidélis, Vila Sao Francisco sao paulo",apartamentos,72,2,2,1,2500,SÃO PAULO - APARTAMENTO PADRÃO - VILA SÃO FRANCISCO,/imovel/aluguel-apartamento-2-quartos-vila-sao-francisco-zona-oeste-sao-paulo-sp-72m2-id-2514135576/,2514135576,zona oeste,44.933143,7.540121
"Rua Faustolo, Lapa sao paulo",apartamentos,67,2,2,2,3300,Apartamento para aluguel possui 67 metros quadrados com 2 quartos em Lapa - São Paulo - São Paulo,/imovel/aluguel-apartamento-2-quartos-mobiliado-lapa-zona-oeste-sao-paulo-sp-67m2-id-2514678108/,2514678108,zona oeste,-23.5239201,-46.6932404
"Rua Suméria, Jardim Umuarama sao paulo",casas,220,3,4,2,3700,"Casa com 4 dorms, Jardim Umuarama, São Paulo - R$ 830 mil, Cod: 845",/imovel/venda-casa-4-quartos-com-lavanderia-coletiva-jardim-umuarama-zona-sul-sao-paulo-sp-220m2-id-2227005920/,2227005920,zona sul,44.933143,7.540121
"Avenida Jandira, Moema sao paulo",casas,140,4,3,2,4800,Casa em Moema de Uso Misto com 140 m²- 3 dorm ou 6 salas,/imovel/aluguel-casa-3-quartos-com-quintal-moema-zona-sul-sao-paulo-sp-140m2-id-2460067147/,2460067147,zona sul,-23.6056955,-46.6640889
"Rua João de Castro Rebelo, Jabaquara sao paulo",casas,152,2,3,2,2800,"Sobrado com 3 dormitórios para alugar, 152 m² por R$ 2.800,00/mês - Jabaquara - São Paulo/SP",/imovel/aluguel-casa-3-quartos-com-cozinha-jabaquara-zona-sul-sao-paulo-sp-152m2-id-2515894479/,2515894479,zona sul,-23.6483805,-46.6352785
"Rua Frutuoso Barbosa, Jardim Primavera sao paulo",casas,100,3,3,2,2300,Casa para aluguel com 3 quartos 1 suíte com varanda à 5 minutos da estação autódromo,/imovel/aluguel-casa-3-quartos-com-seguranca-interna-jardim-primavera-zona-sul-sao-paulo-sp-100m2-id-2516336119/,2516336119,zona sul,44.933143,7.540121
"Rua José Serdeira Ribas, Jardim Vergueiro sao paulo",casas,150,4,3,1,2300,",Sobrado - Jardim Vergueiro",/imovel/aluguel-casa-3-quartos-jardim-vergueiro-zona-sul-sao-paulo-sp-150m2-id-2515985727/,2515985727,zona sul,44.933143,7.540121
"Rua Guilherme Asbahr Neto, Chácara Monte Alegre sao paulo",casas,130,2,2,2,2200,"Excelente casa , no Alto da Boa Vista !",/imovel/aluguel-casa-2-quartos-chacara-monte-alegre-zona-sul-sao-paulo-sp-130m2-id-2515942089/,2515942089,zona sul,44.933143,7.540121
"Rua Doutor Nestor Alberto de Macedo, Jardim da Saude sao paulo",casas,100,1,2,0,1800,Casa para aluguel tem 100 metros quadrados com 2 quartos em Vila Santo Estéfano - São Paulo - SP,/imovel/aluguel-casa-2-quartos-com-quintal-jardim-da-saude-zona-sul-sao-paulo-sp-100m2-id-2512652293/,2512652293,zona sul,-23.6262055,-46.6191445
Vila Santa Teresa sao paulo,casas,92,1,2,2,1900,Casa Térrea em Vila Santa Teresa (zona Sul) - São Paulo,/imovel/aluguel-casa-2-quartos-com-salao-de-festas-vila-santa-teresa-zona-sul-sao-paulo-sp-92m2-id-2516141754/,2516141754,zona sul,-23.5659185,-46.5928764
"Avenida Miguel Yunes, Usina Piratininga sao paulo",casas,200,2,3,2,2550,SAO PAULO - Casa Padrão - USINA PIRATININGA,/imovel/aluguel-casa-3-quartos-com-armario-de-cozinha-usina-piratininga-zona-sul-sao-paulo-sp-200m2-id-2516158682/,2516158682,zona sul,44.933143,7.540121
"Rua Elizabeth Linley, Americanópolis sao paulo",casas,91,1,2,2,1650,Casa para aluguel com 91 metros quadrados com 2 quartos em Americanópolis - São Paulo - São Paulo,/imovel/aluguel-casa-2-quartos-americanopolis-zona-sul-sao-paulo-sp-91m2-id-2515039380/,2515039380,zona sul,44.933143,7.540121
"Rua Pedro de Cândia, Monte Azul sao paulo",casas,80,2,3,2,2200,"Sobrado com 3 dormitórios para alugar, 80 m² por R$ 2.200,00/mês - Jardim Monte Azul - São Paulo/SP",/imovel/aluguel-casa-3-quartos-monte-azul-zona-sul-sao-paulo-sp-80m2-id-2515437878/,2515437878,zona sul,44.933143,7.540121
"Rua Teodósio Nobre, Vila Marari sao paulo",casas,300,2,3,2,1700,Linda casa terrea 3 dormitorios na cidade ademar,/imovel/aluguel-casa-3-quartos-vila-marari-zona-sul-sao-paulo-sp-300m2-id-2515942092/,2515942092,zona sul,44.933143,7.540121
"Rua Guilherme Asbahr Neto, Chácara Monte Alegre sao paulo",casas,120,2,2,1,2200,Casa de Vila para residência ou comercio com 2 dormitórios,/imovel/aluguel-casa-2-quartos-chacara-monte-alegre-zona-sul-sao-paulo-sp-120m2-id-2515203689/,2515203689,zona sul,44.933143,7.540121
"Rua Angélica de Jesus, Jabaquara sao paulo",casas,110,2,2,3,1900,SãO PAULO - Casa Padrão - Jabaquara,/imovel/aluguel-casa-2-quartos-com-armario-embutido-jabaquara-zona-sul-sao-paulo-sp-110m2-id-2510925379/,2510925379,zona sul,44.933143,7.540121
"Rua Professor Romeu Pellegrini, Ipiranga sao paulo",casas,74,2,2,1,2200,Casa com 2 dormitórios próximo ao Hospital Ipiranga,/imovel/aluguel-casa-2-quartos-com-cozinha-ipiranga-zona-sul-sao-paulo-sp-74m2-id-2516045169/,2516045169,zona sul,-23.581405,-46.6138187
Jardim Aeroporto sao paulo,casas,189,3,4,2,3500,Casa no Jardim Aeroporto - São Paulo,/imovel/aluguel-casa-4-quartos-jardim-aeroporto-zona-sul-sao-paulo-sp-189m2-id-2513916038/,2513916038,zona sul,-23.2140836,-45.8840069
"Rua Santo Antônio de Categero, Vila Natalia sao paulo",casas,70,2,1,1,1200,"Casa com 1 dorm, Vila Natália, São Paulo, Cod: 510",/imovel/aluguel-casa-1-quarto-vila-natalia-zona-sul-sao-paulo-sp-70m2-id-2515414123/,2515414123,zona sul,-23.6241816,-46.5970189
"Avenida Ceci, Planalto Paulista sao paulo",casas,130,2,3,1,3200,"Casa com 3 dorms, Planalto Paulista, São Paulo, Cod: 481",/imovel/aluguel-casa-3-quartos-planalto-paulista-zona-sul-sao-paulo-sp-130m2-id-2515413588/,2515413588,zona sul,44.933143,7.540121
"Rua Geraldo Bourroul, Brooklin sao paulo",casas,110,2,2,2,2100,São Paulo - Casa Padrão - Brooklin,/imovel/aluguel-casa-2-quartos-com-armario-de-cozinha-brooklin-zona-sul-sao-paulo-sp-110m2-id-2515374787/,2515374787,zona sul,44.933143,7.540121
"Rua Francisco de Paula Brito, Planalto Paulista sao paulo",casas,180,3,3,3,4200,SOBRADO 3 DORMTS 2 SUÍTES 180 M² EDÍCULA + QUINTAL PLANALTO PAULISTA LOCAÇÃO,/imovel/aluguel-casa-3-quartos-com-area-de-servico-planalto-paulista-zona-sul-sao-paulo-sp-180m2-id-2515398595/,2515398595,zona sul,44.933143,7.540121
"Rua Capanema, Brooklin sao paulo",casas,130,2,2,1,3500,São Paulo - Casa Padrão - Brooklin,/imovel/aluguel-casa-2-quartos-com-armario-de-cozinha-brooklin-zona-sul-sao-paulo-sp-130m2-id-2515806180/,2515806180,zona sul,44.933143,7.540121
"Rua Horácio Alves da Costa, Jardim Nosso Lar sao paulo",casas,140,3,3,2,2300,SãO PAULO - Casa Padrão - Jardim Nosso Lar,/imovel/aluguel-casa-3-quartos-jardim-nosso-lar-zona-sul-sao-paulo-sp-140m2-id-2510489009/,2510489009,zona sul,44.933143,7.540121
"Avenida Doutor Cardoso de Melo, Vila Olímpia sao paulo",apartamentos,74,2,2,1,5850,"Apartamento com 2 dormitórios para alugar, 74 m² por R$ 5.850,00/mês - Vila Olímpia - São Paulo/SP",/imovel/aluguel-apartamento-2-quartos-mobiliado-vila-olimpia-zona-sul-sao-paulo-sp-74m2-id-2512499139/,2512499139,zona sul,-23.6001686,-46.6810465
"Rua Joinville, Vila Mariana sao paulo",apartamentos,100,3,3,1,2700,Apartamento de 100 m² inteiro reformado bem localizado no bairro Vila Mariana !!,/imovel/venda-apartamento-3-quartos-vila-mariana-zona-sul-sao-paulo-sp-100m2-id-2482121802/,2482121802,zona sul,44.933143,7.540121
"Rua Luís Correia de Melo, Granja Julieta sao paulo",apartamentos,38,1,1,1,2991,"Apartamento com 1 dormitório, 38 m² - venda por R$ 450.000,00 ou aluguel por R$ 2.991,32 - Granja Ju",/imovel/venda-apartamento-1-quarto-com-armario-de-cozinha-granja-julieta-zona-sul-sao-paulo-sp-38m2-id-2502353042/,2502353042,zona sul,44.933143,7.540121
"Rua Major Freire, São Judas sao paulo",apartamentos,57,2,2,1,2200,Apartamento de 57 metros quadrados no bairro Vila Monte Alegre com 2 quartos,/imovel/venda-apartamento-2-quartos-com-piscina-sao-judas-zona-sul-sao-paulo-sp-57m2-id-2443674477/,2443674477,zona sul,-23.6269381,-46.6403601
"Avenida Cupecê, Jardim Prudência sao paulo",apartamentos,69,2,2,1,2700,"Apartamento com 2 dormitórios para alugar, 69 m² por R$ 2.700,00/mês - Jardim Prudência - São Paulo/",/imovel/aluguel-apartamento-2-quartos-com-piscina-jardim-prudencia-zona-sul-sao-paulo-sp-69m2-id-2513968623/,2513968623,zona sul,44.933143,7.540121
"Rua Zacarias de Gois, Campo Belo sao paulo",apartamentos,100,3,2,2,5650,Apartamento para aluguel com 100 metros quadrados com 2 quartos no Campo Belo- São Paulo - SP,/imovel/aluguel-apartamento-2-quartos-com-piscina-campo-belo-zona-sul-sao-paulo-sp-100m2-id-2514598912/,2514598912,zona sul,-23.6250654,-46.6733564
Jardim Prudência sao paulo,apartamentos,76,2,2,2,3500,"Apartamento com 2 dormitórios para alugar, 76 m² por R$ 3.500,00/mês - Jardim Prudência - São Paulo/",/imovel/aluguel-apartamento-2-quartos-com-piscina-jardim-prudencia-zona-sul-sao-paulo-sp-76m2-id-2511897731/,2511897731,zona sul,-23.64494605,-46.67252862486157
"Rua Barão do Triunfo, Brooklin sao paulo",apartamentos,48,1,1,1,1800,"Apartamento para alugar, 48 m² por R$ 1.800,00/mês - Brooklin Novo - São Paulo/SP",/imovel/aluguel-apartamento-1-quarto-com-piscina-brooklin-zona-sul-sao-paulo-sp-48m2-id-2515299201/,2515299201,zona sul,44.933143,7.540121
"Alameda dos Aicás, Moema sao paulo",apartamentos,106,3,2,2,7000,São Paulo - Apartamento Padrão - Moema Índios,/imovel/venda-apartamento-2-quartos-com-piscina-moema-zona-sul-sao-paulo-sp-106m2-id-2493176636/,2493176636,zona sul,-23.609025,-46.6582179
"Rua Teodoro de Beaurepaire, Vila Dom Pedro I sao paulo",apartamentos,91,3,3,2,2800,3 Domit - Suíte - Varanda - Lazer - próximo ao Metrô,/imovel/aluguel-apartamento-3-quartos-com-piscina-vila-dom-pedro-i-zona-sul-sao-paulo-sp-91m2-id-2511422686/,2511422686,zona sul,44.933143,7.540121
"Rua Paulo Orozimbo, Cambuci sao paulo",apartamentos,70,2,2,1,2100,Apartamento para aluguel tem 70 metros quadrados com 2 quartos em Cambuci - São Paulo - São Paulo,/imovel/aluguel-apartamento-2-quartos-cambuci-zona-sul-sao-paulo-sp-70m2-id-2515972709/,2515972709,zona sul,44.933143,7.540121
"Rua Baluarte, Vila Olímpia sao paulo",apartamentos,73,2,2,1,4600,São Paulo - Apartamento Padrão - Vila Olímpia,/imovel/venda-apartamento-2-quartos-com-elevador-vila-olimpia-zona-sul-sao-paulo-sp-73m2-id-2515467093/,2515467093,zona sul,-23.5986139,-46.6748261
"Rua Engenheiro José Sá Rocha, Vila Mariana sao paulo",apartamentos,52,1,2,1,2300,"Apartamento com 2 dormitórios para alugar, 52 m² por R$ 2.300,00/mês - Vila Mariana - São Paulo/SP",/imovel/aluguel-apartamento-2-quartos-com-piscina-vila-mariana-zona-sul-sao-paulo-sp-52m2-id-2516239177/,2516239177,zona sul,44.933143,7.540121
"Rua Marcílio Dias, Socorro sao paulo",apartamentos,66,2,2,1,3600,São Paulo - Apartamento Padrão - Socorro,/imovel/aluguel-apartamento-2-quartos-mobiliado-socorro-zona-sul-sao-paulo-sp-66m2-id-2515917982/,2515917982,zona sul,-23.6733677,-46.7143378
"Rua Gomes de Carvalho, Vila Olímpia sao paulo",apartamentos,65,2,2,1,3600,Apartamento de 65 metros quadrados no bairro Vila Olímpia com 2 quartos,/imovel/aluguel-apartamento-2-quartos-com-piscina-vila-olimpia-zona-sul-sao-paulo-sp-65m2-id-2427549315/,2427549315,zona sul,-23.5956808,-46.6881589
"Rua César Vallejo, Real Parque sao paulo",apartamentos,42,1,1,1,2224,São Paulo - Apartamento Padrão - Real Parque,/imovel/aluguel-apartamento-1-quarto-mobiliado-real-parque-zona-sul-sao-paulo-sp-42m2-id-2516279784/,2516279784,zona sul,-23.6067336,-46.7018308
"Rua Nicolau Barreto, Brooklin sao paulo",apartamentos,49,2,1,1,3200,"Apartamento para alugar, 49 m² por R$ 3.200,00/mês - Brooklin Paulista - São Paulo/SP",/imovel/aluguel-apartamento-1-quarto-com-piscina-brooklin-zona-sul-sao-paulo-sp-49m2-id-2513482206/,2513482206,zona sul,-23.6193111,-46.6927251
"Rua Pedro Victor, Vila Gumercindo sao paulo",apartamentos,71,2,2,1,2600,"Apartamento com 2 dormitórios para alugar, 71 m² - Vila Gumercindo - São Paulo/SP",/imovel/aluguel-apartamento-2-quartos-com-churrasqueira-vila-gumercindo-zona-sul-sao-paulo-sp-71m2-id-2516274511/,2516274511,zona sul,-23.596203,-46.6189137
"Rua Castilho, Brooklin sao paulo",apartamentos,69,2,1,2,5300,"Apartamento, 69 m² - venda por R$ 890.000,00 ou aluguel por R$ 5.300,00/mês - Brooklin - São Paulo/S",/imovel/venda-apartamento-1-quarto-mobiliado-brooklin-zona-sul-sao-paulo-sp-69m2-id-2490539504/,2490539504,zona sul,-23.6133318,-46.6912012
"Rua Doutor Paschoal Imperatriz, Vila Gertrudes sao paulo",apartamentos,48,1,1,1,3290,"Apartamento Mobiliado em Vila Gertrudes - São Paulo, SP",/imovel/aluguel-apartamento-1-quarto-com-piscina-vila-gertrudes-zona-sul-sao-paulo-sp-48m2-id-2516272581/,2516272581,zona sul,44.933143,7.540121
Vila Sofia sao paulo,apartamentos,77,3,3,1,3250,"Apartamento à venda, 77 m² por R$ 590.000,00 - Vila Sofia - São Paulo/SP",/imovel/venda-apartamento-3-quartos-com-piscina-vila-sofia-zona-sul-sao-paulo-sp-77m2-id-2510577976/,2510577976,zona sul,-23.689279499999998,-46.599687135115474
"Rua Doutor Martins de Oliveira, Morumbi sao paulo",apartamentos,70,2,3,2,2400,São Paulo - Apartamento Padrão - Portal do Morumbi,/imovel/aluguel-apartamento-3-quartos-mobiliado-morumbi-zona-sul-sao-paulo-sp-70m2-id-2516161800/,2516161800,zona sul,44.933143,7.540121
"Rua Tenente Gomes Ribeiro, Vila Mariana sao paulo",apartamentos,45,1,1,1,2000,"Apartamento 1 quarto, 45 m² úteis R$ 2.000 Vila Mariana - SP",/imovel/aluguel-apartamento-1-quarto-com-tv-a-cabo-vila-mariana-zona-sul-sao-paulo-sp-45m2-id-2516363038/,2516363038,zona sul,-23.5996489,-46.6376552
"Alameda Jauaperi, Moema sao paulo",apartamentos,50,1,1,1,2300,São Paulo - Apartamento Padrão - Moema,/imovel/aluguel-apartamento-1-quarto-moema-zona-sul-sao-paulo-sp-50m2-id-2516124181/,2516124181,zona sul,-23.6047463,-46.6669817
